{"nodes": {"690": {"address": "Vir Gub?eva ulica 12", "lat": 46.1507768, "lon": 14.6052041, "node_id": 690, "post_id": "A1"}, "533": {"address": "Radomlje Cesta borcev 3", "lat": 46.1728265, "lon": 14.6092313, "node_id": 533, "post_id": "A2"}, "95": {"address": "Menge\ufffd Trdinov trg 8", "lat": 46.1631656, "lon": 14.5685624, "node_id": 95, "post_id": "A3"}, "153": {"address": "Kamnik Ljubljanska cesta 14", "lat": 46.2070941, "lon": 14.5976785, "node_id": 153, "post_id": "A4"}, "243": {"address": "Dob Ulica 7. avgusta 29", "lat": 46.1496257, "lon": 14.6277492, "node_id": 243, "post_id": "A5"}}, "edge": [[690, 533, 4022], [533, 690, 4103], [533, 690, 4140], [690, 533, 4178], [690, 533, 4072], [533, 690, 4196], [533, 690, 4147], [690, 533, 4020], [533, 690, 4056], [533, 690, 4014], [533, 690, 4028], [533, 690, 4157], [533, 690, 4084], [533, 690, 4030], [690, 533, 4133], [690, 533, 4026], [690, 533, 4154], [690, 533, 4052], [533, 690, 4138], [533, 690, 4037], [690, 533, 4167], [533, 690, 4052], [690, 533, 4138], [533, 690, 4026], [533, 690, 4154], [533, 690, 4167], [690, 533, 4037], [690, 533, 4030], [690, 533, 4084], [533, 690, 4133], [690, 533, 4028], [690, 533, 4014], [690, 533, 4056], [533, 690, 4020], [690, 533, 4157], [690, 533, 4196], [533, 690, 4072], [690, 533, 4140], [533, 690, 4178], [533, 690, 4022], [690, 533, 4147], [533, 690, 4046], [690, 533, 4103], [690, 533, 4046]]}