{"nodes": {"690": {"address": "Vir Gub?eva ulica 12", "lat": 46.1507768, "lon": 14.6052041, "node_id": 690, "post_id": "A1"}, "533": {"address": "Radomlje Cesta borcev 3", "lat": 46.1728265, "lon": 14.6092313, "node_id": 533, "post_id": "A2"}, "95": {"address": "Menge\ufffd Trdinov trg 8", "lat": 46.1631656, "lon": 14.5685624, "node_id": 95, "post_id": "A3"}, "153": {"address": "Kamnik Ljubljanska cesta 14", "lat": 46.2070941, "lon": 14.5976785, "node_id": 153, "post_id": "A4"}, "243": {"address": "Dob Ulica 7. avgusta 29", "lat": 46.1496257, "lon": 14.6277492, "node_id": 243, "post_id": "A5"}}, "edge": [[533, 243, 2490], [243, 533, 2490], [153, 533, 4482], [153, 533, 4789], [533, 95, 2930], [533, 153, 3790], [153, 95, 4593], [153, 533, 5030], [95, 153, 4627], [690, 243, 2463], [533, 690, 2226], [533, 95, 4124], [243, 690, 1648], [690, 533, 1875], [533, 690, 2989], [243, 533, 2775], [95, 533, 4124], [690, 243, 1405], [533, 153, 4012], [153, 95, 4627], [533, 153, 4482], [533, 690, 2877], [243, 690, 1724], [533, 153, 3831], [533, 243, 3090], [690, 533, 2290], [243, 690, 1341], [243, 533, 3090], [533, 243, 2833], [243, 533, 2833], [153, 533, 4012], [243, 533, 3397], [95, 153, 4629], [95, 533, 3251], [243, 690, 2398], [533, 243, 2811], [243, 533, 2811], [153, 95, 5508], [533, 95, 3251], [690, 243, 1494], [690, 243, 2398], [153, 95, 4629], [95, 153, 5508], [533, 690, 2290], [533, 95, 3036], [153, 533, 3831], [95, 533, 3046], [533, 153, 3748], [690, 243, 1724], [243, 533, 2481], [533, 243, 2481], [95, 533, 3036], [690, 243, 1341], [533, 95, 3046], [533, 153, 4789], [153, 533, 3790], [533, 153, 5030], [690, 533, 2877], [690, 243, 1648], [95, 533, 3061], [243, 690, 2463], [690, 533, 2226], [243, 690, 1405], [95, 533, 2832], [533, 95, 2831], [533, 95, 3061], [95, 533, 2831], [533, 690, 1875], [533, 95, 2832], [690, 533, 2989], [533, 243, 2775], [95, 153, 4593], [153, 533, 3748], [533, 243, 3397], [95, 533, 2930], [243, 690, 1494]]}