{
  "nodes": {
    "0": {
      "node_id": 0,
      "is_post": true,
      "post_id": "A1",
      "lat": 43.5104144,
      "lon": 16.4390596,
      "address": "Kralja Tomislava 9 SPLIT"
    },
    "1": {
      "node_id": 1,
      "is_post": true,
      "post_id": "A2",
      "lat": 43.5114394,
      "lon": 16.4490614,
      "address": " Test  Test"
    },
    "2": {
      "node_id": 2,
      "is_post": true,
      "post_id": "A3",
      "lat": 43.5122809,
      "lon": 16.4607785,
      "address": " Test  Test"
    },
    "3": {
      "node_id": 3,
      "is_post": true,
      "post_id": "A4",
      "lat": 43.5068243,
      "lon": 16.4603897,
      "address": "Antuna Branka \u0160imi\u0107a 32 SPLIT"
    },
    "4": {
      "node_id": 4,
      "is_post": true,
      "post_id": "A5",
      "lat": 43.5091665,
      "lon": 16.4558177,
      "address": " Test  Test"
    },
    "5": {
      "node_id": 5,
      "is_post": true,
      "post_id": "A6",
      "lat": 43.5020488,
      "lon": 16.4489219,
      "address": " Test  Test"
    },
    "6": {
      "node_id": 6,
      "is_post": true,
      "post_id": "A7",
      "lat": 43.5059148,
      "lon": 16.4472014,
      "address": "Kralja Zvonimira 45 SPLIT"
    },
    "7": {
      "node_id": 7,
      "is_post": true,
      "post_id": "A8",
      "lat": 43.5062668,
      "lon": 16.4416229,
      "address": "Obala kneza Domagoja 3 SPLIT"
    },
    "8": {
      "node_id": 8,
      "is_post": true,
      "post_id": "A9",
      "lat": 43.5023178,
      "lon": 16.4609352,
      "address": " Test  Test"
    }
  },
  "edge": [
    [
      7,
      6,
      1409
    ],
    [
      4,
      6,
      921
    ],
    [
      1,
      6,
      760
    ],
    [
      4,
      5,
      1226
    ],
    [
      1,
      0,
      947
    ],
    [
      4,
      3,
      713
    ],
    [
      6,
      4,
      921
    ],
    [
      1,
      8,
      1082
    ],
    [
      6,
      3,
      1205
    ],
    [
      2,
      1,
      983
    ],
    [
      5,
      3,
      1381
    ],
    [
      3,
      5,
      1381
    ],
    [
      7,
      5,
      998
    ],
    [
      0,
      7,
      2426
    ],
    [
      5,
      6,
      556
    ],
    [
      5,
      7,
      998
    ],
    [
      4,
      1,
      727
    ],
    [
      3,
      4,
      713
    ],
    [
      3,
      6,
      1205
    ],
    [
      7,
      4,
      1156
    ],
    [
      7,
      0,
      2426
    ],
    [
      4,
      2,
      697
    ],
    [
      6,
      8,
      584
    ],
    [
      2,
      4,
      697
    ],
    [
      0,
      1,
      947
    ],
    [
      0,
      8,
      902
    ],
    [
      5,
      4,
      1226
    ],
    [
      1,
      4,
      727
    ],
    [
      4,
      7,
      1156
    ],
    [
      1,
      2,
      983
    ],
    [
      6,
      5,
      556
    ],
    [
      8,
      6,
      584
    ],
    [
      0,
      3,
      2109
    ],
    [
      8,
      0,
      902
    ],
    [
      6,
      7,
      1409
    ],
    [
      3,
      0,
      2109
    ],
    [
      8,
      1,
      1082
    ],
    [
      6,
      1,
      760
    ]
  ]
}