{
  "nodes": {
    "71": {
      "node_id": 71,
      "is_post": true,
      "post_id": "A1",
      "lat": 43.5104144,
      "lon": 16.4390596,
      "address": "Kralja Tomislava 9 SPLIT"
    },
    "9377": {
      "node_id": 9377,
      "is_post": true,
      "post_id": "A2",
      "lat": 43.5114394,
      "lon": 16.4490614,
      "address": " Test  Test"
    },
    "5838": {
      "node_id": 5838,
      "is_post": true,
      "post_id": "A3",
      "lat": 43.5122809,
      "lon": 16.4607785,
      "address": " Test  Test"
    },
    "2141": {
      "node_id": 2141,
      "is_post": true,
      "post_id": "A4",
      "lat": 43.5068243,
      "lon": 16.4603897,
      "address": "Antuna Branka \u0160imi\u0107a 32 SPLIT"
    },
    "14804": {
      "node_id": 14804,
      "is_post": true,
      "post_id": "A5",
      "lat": 43.5091665,
      "lon": 16.4558177,
      "address": " Test  Test"
    },
    "15269": {
      "node_id": 15269,
      "is_post": true,
      "post_id": "A6",
      "lat": 43.5020488,
      "lon": 16.4489219,
      "address": " Test  Test"
    },
    "8175": {
      "node_id": 8175,
      "is_post": true,
      "post_id": "A7",
      "lat": 43.5059148,
      "lon": 16.4472014,
      "address": "Kralja Zvonimira 45 SPLIT"
    },
    "50": {
      "node_id": 50,
      "is_post": true,
      "post_id": "A8",
      "lat": 43.5062668,
      "lon": 16.4416229,
      "address": "Obala kneza Domagoja 3 SPLIT"
    },
    "15824": {
      "node_id": 15824,
      "is_post": true,
      "post_id": "A9",
      "lat": 43.5023178,
      "lon": 16.4609352,
      "address": " Test  Test"
    }
  },
  "edge": [
    [
      15824,
      8175,
      1409
    ],
    [
      14804,
      8175,
      921
    ],
    [
      9377,
      8175,
      760
    ],
    [
      14804,
      15269,
      1226
    ],
    [
      9377,
      71,
      947
    ],
    [
      14804,
      2141,
      713
    ],
    [
      8175,
      14804,
      921
    ],
    [
      9377,
      50,
      1082
    ],
    [
      8175,
      2141,
      1205
    ],
    [
      5838,
      9377,
      983
    ],
    [
      15269,
      2141,
      1381
    ],
    [
      2141,
      15269,
      1381
    ],
    [
      15824,
      15269,
      998
    ],
    [
      71,
      15824,
      2426
    ],
    [
      15269,
      8175,
      556
    ],
    [
      15269,
      15824,
      998
    ],
    [
      14804,
      9377,
      727
    ],
    [
      2141,
      14804,
      713
    ],
    [
      2141,
      8175,
      1205
    ],
    [
      15824,
      14804,
      1156
    ],
    [
      15824,
      71,
      2426
    ],
    [
      14804,
      5838,
      697
    ],
    [
      8175,
      50,
      584
    ],
    [
      5838,
      14804,
      697
    ],
    [
      71,
      9377,
      947
    ],
    [
      71,
      50,
      902
    ],
    [
      15269,
      14804,
      1226
    ],
    [
      9377,
      14804,
      727
    ],
    [
      14804,
      15824,
      1156
    ],
    [
      9377,
      5838,
      983
    ],
    [
      8175,
      15269,
      556
    ],
    [
      50,
      8175,
      584
    ],
    [
      71,
      2141,
      2109
    ],
    [
      50,
      71,
      902
    ],
    [
      8175,
      15824,
      1409
    ],
    [
      2141,
      71,
      2109
    ],
    [
      50,
      9377,
      1082
    ],
    [
      8175,
      9377,
      760
    ]
  ]
}