{
  "nodes": {
    "2499": {
      "address": "Globoko Globoko 63",
      "lat": 45.9540673,
      "lon": 15.6339655,
      "node_id": 2499,
      "post_id": "A1"
    },
    "63502": {
      "address": "hrvaska5 hrvaska5 ",
      "lat": 45.8936019,
      "lon": 15.6962282,
      "node_id": 63502,
      "post_id": "A2"
    },
    "47460": {
      "address": "hrvaska1 hrvaska1 ",
      "lat": 45.839665,
      "lon": 15.6863823,
      "node_id": 47460,
      "post_id": "A3"
    },
    "17940": {
      "address": "Jesenice Jesenice 9",
      "lat": 45.8595037,
      "lon": 15.6897957,
      "node_id": 17940,
      "post_id": "A4"
    },
    "18440": {
      "address": "hrvaska6 hrvaska6 ",
      "lat": 45.8606795,
      "lon": 15.8031616,
      "node_id": 18440,
      "post_id": "A5"
    },
    "86774": {
      "address": "hrvaska2 hrvaska2 ",
      "lat": 45.8031663,
      "lon": 15.7101405,
      "node_id": 86774,
      "post_id": "A6"
    },
    "25590": {
      "address": "?ate\ufffd ob Savi Topli\ufffdka cesta 35",
      "lat": 45.89337,
      "lon": 15.6214561,
      "node_id": 25590,
      "post_id": "A7"
    },
    "31310": {
      "address": "hrvaska3 hrvaska3 ",
      "lat": 45.9171602,
      "lon": 15.7280016,
      "node_id": 31310,
      "post_id": "A8"
    },
    "1808": {
      "address": "Kapele Kapele 20",
      "lat": 45.9310499,
      "lon": 15.6780936,
      "node_id": 1808,
      "post_id": "A9"
    },
    "56284": {
      "address": "hrvaska4 hrvaska4 ",
      "lat": 45.8121115,
      "lon": 15.816119,
      "node_id": 56284,
      "post_id": "A10"
    },
    "60310": {
      "address": "hrvaska9 hrvaska9 ",
      "lat": 45.882431,
      "lon": 15.7389888,
      "node_id": 60310,
      "post_id": "A11"
    },
    "79013": {
      "address": "Cerklje ob Krki Cerklje ob Krki 2",
      "lat": 45.8844935,
      "lon": 15.5231733,
      "node_id": 79013,
      "post_id": "A12"
    },
    "84418": {
      "address": "Leskovec pri Kr\ufffdkem Ulica 11. novembra 4",
      "lat": 45.9419906,
      "lon": 15.4781109,
      "node_id": 84418,
      "post_id": "A13"
    },
    "92232": {
      "address": "Bre\ufffdice Ulica stare pravde 34",
      "lat": 45.9046721,
      "lon": 15.5934382,
      "node_id": 92232,
      "post_id": "A14"
    },
    "89437": {
      "address": "Kr\ufffdka vas Kr\ufffdka vas 1",
      "lat": 45.8913565,
      "lon": 15.5705945,
      "node_id": 89437,
      "post_id": "A15"
    },
    "95157": {
      "address": "Dobova Ulica bratov Gerjovi?ev 52",
      "lat": 45.8949345,
      "lon": 15.6602321,
      "node_id": 95157,
      "post_id": "A16"
    }
  },
  "edge": [
    [
      18440,
      60310,
      3888
    ],
    [
      18440,
      31310,
      8201
    ],
    [
      86774,
      47460,
      2644
    ],
    [
      86774,
      56284,
      6323
    ],
    [
      1808,
      2499,
      3016
    ],
    [
      1808,
      95157,
      3031
    ],
    [
      1808,
      31310,
      3081
    ],
    [
      47460,
      86774,
      2644
    ],
    [
      47460,
      17940,
      2491
    ],
    [
      47460,
      56284,
      10253
    ],
    [
      92232,
      25590,
      2920
    ],
    [
      92232,
      89437,
      2565
    ],
    [
      92232,
      95157,
      3240
    ],
    [
      92232,
      2499,
      5042
    ],
    [
      89437,
      25590,
      2568
    ],
    [
      89437,
      92232,
      2565
    ],
    [
      89437,
      79013,
      2861
    ],
    [
      89437,
      84418,
      7160
    ],
    [
      95157,
      2499,
      6600
    ],
    [
      95157,
      92232,
      3240
    ],
    [
      95157,
      63502,
      2933
    ],
    [
      95157,
      1808,
      3031
    ],
    [
      95157,
      31310,
      5125
    ],
    [
      84418,
      79013,
      5975
    ],
    [
      84418,
      89437,
      7160
    ],
    [
      25590,
      92232,
      2920
    ],
    [
      25590,
      89437,
      2568
    ],
    [
      25590,
      17940,
      6005
    ],
    [
      56284,
      86774,
      6323
    ],
    [
      56284,
      47460,
      10253
    ],
    [
      63502,
      60310,
      2784
    ],
    [
      63502,
      95157,
      2933
    ],
    [
      63502,
      31310,
      3009
    ],
    [
      31310,
      60310,
      3264
    ],
    [
      31310,
      18440,
      8201
    ],
    [
      31310,
      1808,
      3081
    ],
    [
      31310,
      95157,
      5125
    ],
    [
      31310,
      63502,
      3009
    ],
    [
      17940,
      47460,
      2491
    ],
    [
      17940,
      25590,
      6005
    ],
    [
      2499,
      95157,
      6600
    ],
    [
      2499,
      92232,
      5042
    ],
    [
      2499,
      1808,
      3016
    ],
    [
      60310,
      31310,
      3264
    ],
    [
      60310,
      63502,
      2784
    ],
    [
      60310,
      18440,
      3888
    ],
    [
      79013,
      89437,
      2861
    ],
    [
      79013,
      84418,
      5975
    ],
    [
      56284,
      18440,
      6323
    ],
    [
      56284,
      18440,
      6323
    ]
  ]
}